airport,timezone,elevation,continent,longitude,latitude
EGLL,Europe/London,83.0,EU,-0.461941,51.4706
LEBL,Europe/Madrid,12.0,EU,2.07846,41.2971
ESSA,Europe/Stockholm,137.0,EU,17.928829,59.64849
LSZH,Europe/Zurich,1417.0,EU,8.548056,47.458056
EIDW,Europe/Dublin,242.0,EU,-6.262121,53.428713
ENGM,Europe/Oslo,681.0,EU,11.1004,60.193901
EGAC,Europe/London,15.0,EU,-5.8725,54.618099
LTFM,Europe/Istanbul,325.0,EU,28.741951,41.261297
KLAX,America/Los_Angeles,125.0,,-118.407997,33.942501
LOWW,Europe/Vienna,600.0,EU,16.5697,48.110298
LSGG,Europe/Zurich,1411.0,EU,6.10895,46.238098
LTAT,Europe/Istanbul,2828.0,AS,38.0909996033,38.4352989197
LEAL,Europe/Madrid,142.0,EU,-0.558156,38.2822
EGKK,Europe/London,202.0,EU,-0.192089,51.148771
KMIA,America/New_York,8.0,,-80.29060363769531,25.79319953918457
EGPF,Europe/London,26.0,EU,-4.43306,55.871899
KCLT,America/New_York,748.0,,-80.94309997558594,35.2140007019043
EKCH,Europe/Copenhagen,17.0,EU,12.656000137329,55.617900848389
LTFJ,Europe/Istanbul,312.0,AS,29.3092,40.898602
EDDF,Europe/Berlin,364.0,EU,8.561096,50.030241
EBBR,Europe/Brussels,175.0,EU,4.48444,50.901402
LGAV,Europe/Athens,308.0,EU,23.9445,37.936401
LROP,Europe/Bucharest,314.0,EU,26.103396,44.572127
LFPG,Europe/Paris,392.0,EU,2.55,49.012798
LEMG,Europe/Madrid,53.0,EU,-4.49911,36.6749
EDDB,Europe/Berlin,157.0,EU,13.500672,52.362247
LTAC,Europe/Istanbul,3125.0,AS,32.995098,40.128101
EDDL,Europe/Berlin,147.0,EU,6.76678,51.289501
EHAM,Europe/Amsterdam,-11.0,EU,4.76389,52.308601
KDFW,America/Chicago,607.0,,-97.038002,32.896801
UBBB,Asia/Baku,10.0,AS,50.04669952392578,40.46749877929688
EICK,Europe/Dublin,502.0,EU,-8.49111,51.841301
EDDH,Europe/Berlin,53.0,EU,9.98823,53.630402
ENBO,Europe/Oslo,42.0,EU,14.3653,67.269203
EGCC,Europe/London,257.0,EU,-2.279521,53.349375
ESGG,Europe/Stockholm,506.0,EU,12.2798,57.6628
LCLK,Asia/Nicosia,8.0,AS,33.624901,34.875099
LEPA,Europe/Madrid,27.0,EU,2.73881,39.551701
EDDM,Europe/Berlin,1487.0,EU,11.7861,48.353802
EGFF,Europe/London,220.0,EU,-3.34333,51.396702
LFMN,Europe/Paris,12.0,EU,7.21587,43.658401
LEMD,Europe/Madrid,1998.0,EU,-3.56264,40.471926
LFSB,Europe/Paris,885.0,EU,7.521117,47.60068
EGPH,Europe/London,135.0,EU,-3.372288,55.950145
ENHD,Europe/Oslo,86.0,EU,5.20836,59.345299
LEVC,Europe/Madrid,240.0,EU,-0.481625,39.4893
KJFK,America/New_York,13.0,,-73.779317,40.639447
LIRF,Europe/Rome,13.0,EU,12.251998,41.804532
LBSF,Europe/Sofia,1742.0,EU,23.417671,42.696357
EGBB,Europe/London,327.0,EU,-1.74803,52.453899
EPWA,Europe/Warsaw,362.0,EU,20.9671,52.165699
ESMS,Europe/Stockholm,236.0,EU,13.376327,55.535564
LFBO,Europe/Paris,499.0,EU,1.36382,43.629101
LTBS,Europe/Istanbul,20.0,AS,28.7924995422,36.7131004333
ESNZ,Europe/Stockholm,1233.0,EU,14.500322,63.194135
LPFR,Europe/Lisbon,24.0,EU,-7.96590995789,37.0144004822
ESPA,Europe/Stockholm,65.0,EU,22.122,65.5438
EETN,Europe/Tallinn,131.0,EU,24.83264,59.413246
ENZV,Europe/Oslo,29.0,EU,5.63778,58.876701
LFLL,Europe/Paris,821.0,EU,5.090139,45.725996
EBAW,Europe/Brussels,39.0,EU,4.463153,51.190667
KBOS,America/New_York,20.0,,-71.0079,42.36197
LTFE,Europe/Istanbul,21.0,AS,27.664301,37.250599
ENBR,Europe/Oslo,170.0,EU,5.21814,60.2934
KORD,America/Chicago,680.0,,-87.9048,41.9786
KEWR,America/New_York,18.0,,-74.168701,40.692501
KIAD,America/New_York,312.0,,-77.455803,38.9445
EDDK,Europe/Berlin,302.0,EU,7.14274,50.865898
EIKN,Europe/Dublin,665.0,EU,-8.81849,53.910301
LLBG,Asia/Jerusalem,135.0,AS,34.8867,32.011398
EPGD,Europe/Warsaw,489.0,EU,18.4662,54.377602
LTCJ,Europe/Istanbul,1822.0,AS,41.1166000366,37.9290008545
UKBB,Europe/Kyiv,427.0,EU,30.894699,50.345001
LIPE,Europe/Rome,123.0,EU,11.2887,44.5354
LPPR,Europe/Lisbon,228.0,EU,-8.68138980865,41.2481002808
LPPT,Europe/Lisbon,374.0,EU,-9.13592,38.7813
KSFO,America/Los_Angeles,13.0,,-122.374821,37.619806
EDDS,Europe/Berlin,1276.0,EU,9.22196,48.689899
ENVA,Europe/Oslo,56.0,EU,10.924,63.457802
LIPZ,Europe/Rome,7.0,EU,12.3519,45.505299
KSEA,America/Los_Angeles,433.0,,-122.310276,47.447943
LPMA,Atlantic/Madeira,192.0,EU,-16.7745,32.697899
EDDV,Europe/Berlin,183.0,EU,9.68508,52.461102
EGLC,Europe/London,19.0,EU,0.055278,51.505299
EFKS,Europe/Helsinki,866.0,EU,29.239401,65.987602
LTAF,Europe/Istanbul,65.0,AS,35.280399,36.982201
HESH,Africa/Cairo,191.0,AS,34.394717,27.977272
EDDW,Europe/Berlin,14.0,EU,8.78932,53.046786
EBOS,Europe/Brussels,13.0,EU,2.874673,51.1998
KIAH,America/Chicago,97.0,,-95.34140014648438,29.984399795532227
LIMC,Europe/Rome,768.0,EU,8.72811,45.6306
EBCI,Europe/Brussels,614.0,EU,4.457158,50.460982
LFML,Europe/Paris,74.0,EU,5.2125,43.438088
LGTS,Europe/Athens,22.0,EU,22.970009,40.51928
LJLJ,Europe/Ljubljana,1273.0,EU,14.4576,46.223701
LHBP,Europe/Budapest,495.0,EU,19.262393,47.43018
ESDF,Europe/Stockholm,191.0,EU,15.265,56.266701
EGCN,Europe/London,55.0,EU,-1.004267,53.475287
EYPA,Europe/Vilnius,33.0,EU,21.093900680541992,55.97320175170898
LDZA,Europe/Zagreb,353.0,EU,16.0688,45.742901
EFHK,Europe/Helsinki,179.0,EU,24.963341,60.318363
LTCA,Europe/Istanbul,2927.0,AS,39.28348,38.597974
LOWI,Europe/Vienna,1907.0,EU,11.344,47.260201
BIKF,Atlantic/Reykjavik,171.0,EU,-22.6056,63.985001
LMML,Europe/Malta,300.0,EU,14.4775,35.857498
EGSS,Europe/London,348.0,EU,0.235,51.884998
TNCB,America/Kralendijk,20.0,,-68.268501,12.131
LZKZ,Europe/Bratislava,755.0,EU,21.2411,48.663101
EPWR,Europe/Warsaw,404.0,EU,16.882096,51.103719
LIMF,Europe/Rome,989.0,EU,7.64963,45.200802
EFKT,Europe/Helsinki,644.0,EU,24.846799850464,67.700996398926
ESNS,Europe/Stockholm,157.0,EU,21.07690048217773,64.62480163574219
GCRR,Atlantic/Canary,46.0,AF,-13.6052,28.945499
EDDN,Europe/Berlin,1046.0,EU,11.078056,49.498699
EINN,Europe/Dublin,46.0,EU,-8.92482,52.702
EKYT,Europe/Copenhagen,10.0,EU,9.84993,57.094763
ESSB,Europe/Stockholm,47.0,EU,17.941699981689453,59.354400634765625
LKPR,Europe/Prague,1247.0,EU,14.259911,50.100874
EBLG,Europe/Brussels,659.0,EU,5.443897,50.638574
LIML,Europe/Rome,353.0,EU,9.27674,45.445099
ENDU,Europe/Oslo,252.0,EU,18.540399551392,69.055801391602
LOWS,Europe/Vienna,1411.0,EU,13.0043,47.793301
ENCN,Europe/Oslo,57.0,EU,8.08537,58.204201
LUKK,Europe/Chisinau,399.0,EU,28.931,46.9277
LRIA,Europe/Bucharest,411.0,EU,27.620833,47.180278
LIRQ,Europe/Rome,142.0,EU,11.202822,43.808558
ESNN,Europe/Stockholm,16.0,EU,17.443899154663086,62.528099060058594
LTCE,Europe/Istanbul,5763.0,AS,41.1702,39.956501
GCTS,Atlantic/Canary,209.0,AF,-16.5725,28.0445
ESKS,Europe/Stockholm,1608.0,EU,12.842503,61.158393
LYBE,Europe/Belgrade,335.0,EU,20.309099,44.818401
LIRN,Europe/Rome,294.0,EU,14.2908,40.886002
LRCK,Europe/Bucharest,353.0,EU,28.4883,44.362202
EGGD,Europe/London,622.0,EU,-2.71909,51.382702
LTCG,Europe/Istanbul,104.0,AS,39.7897,40.995098
OJAI,Asia/Amman,2395.0,AS,35.9931983948,31.7226009369
KPHL,America/New_York,36.0,,-75.241096,39.871899
LEBB,Europe/Madrid,138.0,EU,-2.91061,43.301102
LYPG,Europe/Podgorica,141.0,EU,19.2519,42.359402
LTAU,Europe/Istanbul,3463.0,AS,35.4953994751,38.770401001
LOWK,Europe/Vienna,1472.0,EU,14.3377,46.642502
DTTA,Africa/Tunis,22.0,AF,10.2272,36.851002
EYVI,Europe/Vilnius,648.0,EU,25.285801,54.634102
EGNT,Europe/London,266.0,EU,-1.689577,55.037958
UGTB,Asia/Tbilisi,1624.0,AS,44.9547,41.669201
BKPR,Europe/Belgrade,1789.0,EU,21.035801,42.5728
LIBR,Europe/Rome,47.0,EU,17.947001,40.6576
EGNX,Europe/London,306.0,EU,-1.32806,52.8311
UKOO,Europe/Kyiv,172.0,EU,30.6765,46.4268
LTAI,Europe/Istanbul,177.0,AS,30.800501,36.898701
LWSK,Europe/Skopje,781.0,EU,21.622581,41.958087
EDDP,Europe/Berlin,465.0,EU,12.232705,51.420657
LTCO,Europe/Istanbul,5462.0,AS,43.025742,39.655642
GCLP,Atlantic/Canary,78.0,AF,-15.3866,27.9319
EKBI,Europe/Copenhagen,247.0,EU,9.157019,55.740335
ESNQ,Europe/Stockholm,1508.0,EU,20.336799621582,67.821998596191
ESNU,Europe/Stockholm,24.0,EU,20.282800674438,63.791801452637
ENAT,Europe/Oslo,9.0,EU,23.371700286865,69.976097106934
EKAH,Europe/Copenhagen,82.0,EU,10.618286,56.303331
ESSV,Europe/Stockholm,164.0,EU,18.346200942993,57.662799835205
LTAJ,Europe/Istanbul,2315.0,AS,37.478699,36.947201
EPKK,Europe/Warsaw,791.0,EU,19.7848,50.077702
KATL,America/New_York,1026.0,,-84.428101,33.6367
MMUN,America/Cancun,22.0,,-86.874304,21.039444
EGGW,Europe/London,526.0,EU,-0.368333,51.874699
OIIE,Asia/Tehran,3305.0,AS,51.15219879150391,35.416099548339844
ENAL,Europe/Oslo,69.0,EU,6.1197,62.5625
ENNA,Europe/Oslo,25.0,EU,24.973499,70.068802
LIPX,Europe/Rome,239.0,EU,10.887303,45.394955
EHGG,Europe/Amsterdam,17.0,EU,6.57944,53.119701
UDYZ,Asia/Yerevan,2838.0,AS,44.3959007263,40.1473007202
MPTO,America/Panama,135.0,,-79.383499,9.07136
ESMQ,Europe/Stockholm,17.0,EU,16.2876,56.685501
LTBJ,Europe/Istanbul,412.0,AS,27.157,38.2924
MKJS,America/Jamaica,4.0,,-77.913399,18.5037
LATI,Europe/Tirane,126.0,EU,19.7206,41.4147
KMCO,America/New_York,96.0,,-81.30899810791016,28.429399490356445
LEGR,Europe/Madrid,1860.0,EU,-3.77736,37.188702
LTFH,Europe/Istanbul,18.0,AS,36.54861,41.26556
LICC,Europe/Rome,39.0,EU,15.0664,37.466801
ENTC,Europe/Oslo,31.0,EU,18.9189,69.683296
ESTA,Europe/Stockholm,68.0,EU,12.847100257873535,56.29610061645508
LFBD,Europe/Paris,162.0,EU,-0.715556,44.8283
LTCI,Europe/Istanbul,5480.0,AS,43.332298278808594,38.46820068359375
LEMI,Europe/Madrid,644.0,EU,-1.125,37.803
EGSH,Europe/London,117.0,EU,1.28278,52.6758
LOWG,Europe/Vienna,1115.0,EU,15.4396,46.9911
FIMP,Indian/Mauritius,186.0,AF,57.683601,-20.430201
GCFV,Atlantic/Canary,85.0,AF,-13.8638,28.4527
UKLL,Europe/Kyiv,1071.0,EU,23.9561,49.8125
LTCN,Europe/Istanbul,1723.0,AS,36.9535217285,37.5388259888
GFLL,Africa/Freetown,84.0,AF,-13.1955,8.61644
LTCT,Europe/Istanbul,3101.0,AS,43.876648,39.976627
ENKR,Europe/Oslo,283.0,EU,29.8913,69.7258
LTCF,Europe/Istanbul,5889.0,AS,43.1150016784668,40.562198638916016
GVAC,Atlantic/Cape_Verde,177.0,AF,-22.9494,16.7414
MDLR,America/Santo_Domingo,213.0,,-68.911111,18.452222
OLBA,Asia/Beirut,87.0,AS,35.488399505615234,33.820899963378906
HEGN,Africa/Cairo,32.0,AF,33.796692,27.176776
ELLX,Europe/Luxembourg,1234.0,EU,6.2044444,49.6233333
UUDD,Europe/Moscow,588.0,EU,37.9063,55.408798
FCPP,Africa/Brazzaville,55.0,AF,11.8866,-4.81603
EGPD,Europe/London,215.0,EU,-2.19778,57.2019
UMMS,Europe/Minsk,670.0,EU,28.039964,53.888071
EKVG,Atlantic/Faroe,280.0,EU,-7.275782,62.063256
LBWN,Europe/Sofia,230.0,EU,27.8251,43.232101
EHEH,Europe/Amsterdam,74.0,EU,5.37452983856,51.4500999451
ESSP,Europe/Stockholm,32.0,EU,16.250600814819336,58.58629989624024
LQSA,Europe/Sarajevo,1708.0,EU,18.331499,43.8246
LICJ,Europe/Rome,65.0,EU,13.091,38.175999
TNCC,America/Curacao,29.0,,-68.959801,12.1889
EVRA,Europe/Riga,36.0,EU,23.9711,56.923599
VIDP,Asia/Kolkata,777.0,AS,77.09519,28.55563
VTSP,Asia/Bangkok,82.0,AS,98.316902,8.1132
HECA,Africa/Cairo,322.0,AF,31.396694,30.111534
LFPO,Europe/Paris,291.0,EU,2.37944,48.72333
CYYZ,America/Toronto,569.0,,-79.6306,43.6772
ENML,Europe/Oslo,10.0,EU,7.2625,62.744701
LTAL,Europe/Istanbul,3520.0,AS,33.795799,41.314201
UCFM,Asia/Bishkek,2058.0,AS,74.4776000977,43.0612983704
UBBG,Asia/Baku,1083.0,AS,46.3176,40.737701
HTDA,Africa/Dar_es_Salaam,182.0,AF,39.202599,-6.87811
KPAE,America/Los_Angeles,606.0,,-122.281998,47.9063
EYKA,Europe/Vilnius,256.0,EU,24.084800720214844,54.96390151977539
ULLI,Europe/Moscow,78.0,EU,30.262501,59.800301
LZIB,Europe/Bratislava,436.0,EU,17.2127,48.1702
UAAA,Asia/Almaty,2234.0,AS,77.042828,43.354267
LOWL,Europe/Vienna,980.0,EU,14.1875,48.2332
LTCW,Europe/Istanbul,6400.0,AS,44.2381,37.5497
LTAZ,Europe/Istanbul,3100.0,AS,34.5345,38.7719
ORER,Asia/Baghdad,1341.0,AS,43.96319961547852,36.23759841918945
LFLS,Europe/Paris,1302.0,EU,5.32937,45.3629
LTCV,Europe/Istanbul,2038.0,AS,42.0582,37.3647
LFRB,Europe/Paris,325.0,EU,-4.41854,48.447899
ENKB,Europe/Oslo,204.0,EU,7.82452,63.111801
ENEV,Europe/Oslo,84.0,EU,16.678100585938,68.491302490234
LIPQ,Europe/Rome,39.0,EU,13.4722,45.827499
UGSB,Asia/Tbilisi,105.0,AS,41.599701,41.610298
WIII,Asia/Jakarta,34.0,AS,106.65599823,-6.1255698204
TLPL,America/St_Lucia,14.0,,-60.952599,13.7332
EGVN,Europe/London,288.0,EU,-1.58362,51.75
LTAN,Europe/Istanbul,3392.0,AS,32.561901,37.979
OEDF,Asia/Riyadh,72.0,AS,49.797901,26.471201
MDPC,America/Santo_Domingo,47.0,,-68.363403,18.5674
ESNX,Europe/Stockholm,1245.0,EU,19.28190040588379,65.59030151367188
UATE,Asia/Aqtau,73.0,AS,51.09086,43.860093
TBPB,America/Barbados,169.0,,-59.4925,13.0746
EGHH,Europe/London,38.0,EU,-1.8425,50.779999
UKHH,Europe/Kyiv,508.0,EU,36.290001,49.924801
LTCS,Europe/Istanbul,2708.0,AS,38.895592,37.445663
OMDB,Asia/Dubai,62.0,AS,55.3643989563,25.2527999878
LTCK,Europe/Istanbul,4157.0,AS,41.66120147705078,38.74779891967773
URRP,Europe/Moscow,213.0,EU,39.924722,47.493888
EGAA,Europe/London,268.0,EU,-6.21582984924,54.6575012207
UACC,Asia/Almaty,1165.0,AS,71.467094,51.027035
LFLB,Europe/Paris,779.0,EU,5.88023,45.6381
LTCD,Europe/Istanbul,3783.0,AS,39.5270004272,39.7102012634
UTTT,Asia/Tashkent,1417.0,AS,69.2811965942,41.257900238
LFTH,Europe/Paris,7.0,EU,6.14602994919,43.0973014832
RKSI,Asia/Seoul,23.0,AS,126.450996,37.469101
LTCB,Europe/Istanbul,11.0,AS,38.085995,40.966872
MRLB,America/Costa_Rica,270.0,,-85.544403,10.5933
GVBA,Atlantic/Cape_Verde,69.0,AF,-22.888900756835938,16.136499404907227
LFTW,Europe/Paris,309.0,EU,4.41635,43.757401
EGTE,Europe/London,102.0,EU,-3.413984,50.734261
LTCP,Europe/Istanbul,2216.0,AS,38.468899,37.7314
GLRB,Africa/Monrovia,31.0,AF,-10.3623,6.23379
OERK,Asia/Riyadh,2049.0,AS,46.698799,24.9576
VABB,Asia/Kolkata,39.0,AS,72.8678970337,19.0886993408
MUVR,America/Havana,210.0,,-81.435303,23.034401
EGPK,Europe/London,65.0,EU,-4.587019,55.502003
OTHH,Asia/Qatar,13.0,AS,51.608056,25.273056
EHRD,Europe/Amsterdam,-15.0,EU,4.43722,51.956902
EDDC,Europe/Berlin,755.0,EU,13.767831,51.134123
LTCR,Europe/Istanbul,1729.0,AS,40.6316986084,37.2233009338
LIMJ,Europe/Rome,13.0,EU,8.840732,44.412039
LTDA,Europe/Istanbul,269.0,AS,36.282223,36.362778
KGSP,America/New_York,964.0,,-82.218903,34.895699
LFPB,Europe/Paris,218.0,EU,2.44139,48.969398
LTBH,Europe/Istanbul,23.0,AS,26.4267997742,40.1376991272
LFRS,Europe/Paris,90.0,EU,-1.61073,47.153198
OBBI,Asia/Bahrain,6.0,AS,50.63764,26.267295
EGNV,Europe/London,120.0,EU,-1.42941,54.509201
LXGB,Europe/Gibraltar,12.0,EU,-5.34966,36.151199
LECH,Europe/Madrid,1182.0,EU,0.073333,40.213889
ETNG,Europe/Berlin,296.0,EU,6.04242,50.9608
DNMM,Africa/Lagos,135.0,AF,3.321160078048706,6.5773701667785645
LFQQ,Europe/Paris,157.0,EU,3.086886,50.563332
LPPS,Atlantic/Madeira,341.0,EU,-16.3500003815,33.0733985901
GMMW,Africa/Casablanca,574.0,AF,-3.02821,34.9888
EDLV,Europe/Berlin,106.0,EU,6.14216995239,51.6024017334
ZMCK,Asia/Ulaanbaatar,4482.0,AS,106.819833,47.646916
LCPH,Asia/Nicosia,41.0,AS,32.485699,34.717999
GMFO,Africa/Casablanca,1535.0,AF,-1.926041,34.789558
LDPL,Europe/Zagreb,274.0,EU,13.9222,44.893501
LTCC,Europe/Istanbul,2251.0,AS,40.201,37.893902
LEJR,Europe/Madrid,93.0,EU,-6.06011,36.744598
ORBI,Asia/Baghdad,114.0,AS,44.2346,33.262501
LIME,Europe/Rome,782.0,EU,9.709223,45.670725
CYUL,America/Toronto,118.0,,-73.742294,45.467837
LTAR,Europe/Istanbul,5239.0,AS,36.9035,39.813801
USSS,Asia/Yekaterinburg,764.0,AS,60.802700042725,56.743099212646
LEZL,Europe/Madrid,112.0,EU,-5.89311,37.417999
FAOR,Africa/Johannesburg,5558.0,AF,28.246,-26.1392
EDLP,Europe/Berlin,699.0,EU,8.61632,51.614101
EPPO,Europe/Warsaw,308.0,EU,16.823359,52.421598
KNYL,America/Phoenix,213.0,,-114.609375,32.650938
EBMB,Europe/Brussels,184.0,EU,4.491005,50.913419
EGSY,Europe/London,163.0,EU,-3.433254,51.405229
LTFG,Europe/Istanbul,92.0,AS,32.300598,36.299217
EFKI,Europe/Helsinki,483.0,EU,27.6924,64.2855
UTFF,Asia/Tashkent,1980.0,AS,71.745003,40.358799
LDDU,Europe/Zagreb,527.0,EU,18.265543,42.562247
LFST,Europe/Paris,505.0,EU,7.628230094909668,48.53829956054688
KMLB,America/New_York,33.0,,-80.645302,28.1028
EDNY,Europe/Berlin,1367.0,EU,9.51149,47.671299
LPPD,Atlantic/Azores,259.0,EU,-25.6979007721,37.7411994934
LEST,Europe/Madrid,1213.0,EU,-8.41514,42.896301
ORSU,Asia/Baghdad,2494.0,AS,45.3167381287,35.5617485046
LTFD,Europe/Istanbul,50.0,AS,27.0138,39.5546
LIRP,Europe/Rome,6.0,EU,10.3927,43.683899
LGRP,Europe/Athens,17.0,AS,28.086201,36.405399
HEMA,Africa/Cairo,213.0,AF,34.59245,25.555548
LIBD,Europe/Rome,193.0,EU,16.760599,41.138901
LGIR,Europe/Athens,115.0,EU,25.1803,35.339699
LEIB,Europe/Madrid,24.0,EU,1.37312,38.872898
EDVE,Europe/Berlin,295.0,EU,10.5561,52.319199
KPHX,America/Phoenix,1135.0,,-112.005905,33.435302
EDXW,Europe/Berlin,51.0,EU,8.34047,54.9132
LGSA,Europe/Athens,490.0,EU,24.1497,35.5317
LGKR,Europe/Athens,6.0,EU,19.911699,39.601898
GMMN,Africa/Casablanca,656.0,AF,-7.58997,33.3675
DTNH,Africa/Tunis,21.0,AF,10.438611,36.075833
LDZD,Europe/Zagreb,289.0,EU,15.354879,44.094988
OKBK,Asia/Kuwait,206.0,AS,47.968899,29.226601
LTCL,Europe/Istanbul,2001.0,AS,41.84040069580078,37.97890090942383
LGKO,Europe/Athens,412.0,AS,27.09115,36.794523
UBBN,Asia/Baku,2863.0,AS,45.45840072631836,39.18880081176758
OMSJ,Asia/Dubai,111.0,AS,55.5172,25.3286
OPIS,Asia/Karachi,1761.0,AS,72.82566,33.549
ENSB,Arctic/Longyearbyen,88.0,EU,15.465600013733,78.246101379395
HCMM,Africa/Mogadishu,29.0,AF,45.3046989440918,2.014440059661865
LTAY,Europe/Istanbul,2795.0,AS,29.7012996674,37.7855987549
LERS,Europe/Madrid,233.0,EU,1.16717,41.1474
LEGE,Europe/Madrid,468.0,EU,2.761774,41.904639
LDSP,Europe/Zagreb,79.0,EU,16.298,43.538898
GMMX,Africa/Casablanca,1545.0,AF,-8.03629970551,31.6068992615
LGKP,Europe/Athens,66.0,EU,27.146,35.421398
LEMH,Europe/Madrid,302.0,EU,4.21865,39.862598
OOMS,Asia/Muscat,48.0,AS,58.284401,23.5933
FACT,Africa/Johannesburg,151.0,AF,18.6016998291,-33.9648017883
LGKF,Europe/Athens,59.0,EU,20.5004997253418,38.12009811401367
CYVR,America/Vancouver,14.0,,-123.183998108,49.193901062
EDSB,Europe/Berlin,408.0,EU,8.0805,48.7794
EHBK,Europe/Amsterdam,375.0,EU,5.77014,50.911701
LGZA,Europe/Athens,12.0,EU,20.8843,37.7509
LFBT,Europe/Paris,1260.0,EU,-0.006439,43.178699
EGNM,Europe/London,681.0,EU,-1.66057,53.865898
UWKD,Europe/Moscow,411.0,EU,49.278701782227,55.606201171875
OMAA,Asia/Dubai,88.0,AS,54.651718,24.443764
EDDG,Europe/Berlin,160.0,EU,7.68483,52.134602
LTAW,Europe/Istanbul,1859.0,AS,36.39056,40.32472
LEAM,Europe/Madrid,70.0,EU,-2.3701,36.843899
LGMT,Europe/Athens,60.0,EU,26.598887,39.057272
LGSM,Europe/Athens,19.0,EU,26.911699,37.689999
LGKV,Europe/Athens,18.0,EU,24.6192,40.9133
LICA,Europe/Rome,39.0,EU,16.2423,38.905399
OEMA,Asia/Riyadh,2151.0,AS,39.705101,24.5534
LYTV,Europe/Podgorica,20.0,EU,18.72330093383789,42.40470123291016
KFLL,America/New_York,9.0,,-80.152702,26.072599
EGNJ,Europe/London,121.0,EU,-0.350832998752594,53.57440185546875
LEVX,Europe/Madrid,856.0,EU,-8.62677,42.2318
VNKT,Asia/Kathmandu,4390.0,AS,85.3591,27.6966
LPLA,Atlantic/Azores,180.0,EU,-27.090799,38.761799
DIAP,Africa/Abidjan,21.0,AF,-3.92629,5.26139
LGSR,Europe/Athens,127.0,EU,25.47929954528809,36.399200439453125
LGSK,Europe/Athens,54.0,EU,23.5037,39.177101
EFTP,Europe/Helsinki,390.0,EU,23.604401,61.414101
LIEO,Europe/Rome,37.0,EU,9.51763,40.898701
LGLM,Europe/Athens,14.0,EU,25.236299514799995,39.917098999
LIEA,Europe/Rome,87.0,EU,8.29077,40.632099
LTCU,Europe/Istanbul,3506.0,AS,40.594489,38.860131
LFKB,Europe/Paris,26.0,EU,9.48373031616211,42.55270004272461
LGPZ,Europe/Athens,11.0,EU,20.765301,38.925499
LGKL,Europe/Athens,26.0,EU,22.02549934387207,37.06829833984375
LGMK,Europe/Athens,405.0,EU,25.348101,37.435101
LTFO,Europe/Istanbul,16.0,AS,40.850796,41.179625
ORMM,Asia/Baghdad,11.0,AS,47.662102,30.549101
LPAZ,Atlantic/Azores,308.0,EU,-25.17060089111328,36.97140121459961
LFRG,Europe/Paris,479.0,EU,0.154481,49.365237
LBBG,Europe/Sofia,135.0,EU,27.515173,42.569917
DTTJ,Africa/Tunis,19.0,AF,10.7755,33.875
KRDU,America/New_York,435.0,,-78.787498,35.877602
LGIO,Europe/Athens,1558.0,EU,20.8225,39.6964
LGSY,Europe/Athens,44.0,EU,24.4871997833,38.9676017761
LJMB,Europe/Ljubljana,876.0,EU,15.6861,46.4799
GMTT,Africa/Casablanca,62.0,AF,-5.921459,35.731741
LTBR,Europe/Istanbul,764.0,AS,29.562599,40.255199
LWOH,Europe/Skopje,2313.0,EU,20.7423,41.18
RPLL,Asia/Manila,75.0,AS,121.019997,14.5086
LIEE,Europe/Rome,13.0,EU,9.05428,39.251499
LFKJ,Europe/Paris,18.0,EU,8.8029203414917,41.92359924316406
LFMV,Europe/Paris,124.0,EU,4.90183,43.907299
EDDE,Europe/Berlin,1036.0,EU,10.9581,50.979801
LFMP,Europe/Paris,144.0,EU,2.87067,42.740398
EEPU,Europe/Tallinn,47.0,EU,24.47279930114746,58.41899871826172
LRCL,Europe/Bucharest,1039.0,EU,23.684292,46.787425
LFBZ,Europe/Paris,245.0,EU,-1.531111,43.468333
FZAA,Africa/Kinshasa,1027.0,AF,15.4446,-4.38575
LIPO,Europe/Rome,355.0,EU,10.3306,45.428902
LFMT,Europe/Paris,17.0,EU,3.96301,43.576199
UTSS,Asia/Samarkand,2224.0,AS,66.98380279541016,39.70050048828125
LTAS,Europe/Istanbul,44.0,AS,32.0886,41.506401
LGRX,Europe/Athens,46.0,EU,21.4256,38.1511
LFJL,Europe/Paris,870.0,EU,6.25132,48.982101
LTBY,Europe/Istanbul,2588.0,AS,30.5194,39.809898
GMTA,Africa/Casablanca,95.0,AF,-3.83951997756958,35.177101135253906
EPRZ,Europe/Warsaw,693.0,EU,22.024155,50.109791
OEJN,Asia/Riyadh,48.0,AS,39.156502,21.6796
DABC,Africa/Algiers,2265.0,AF,6.620389938354492,36.2760009765625
CYHZ,America/Halifax,477.0,,-63.5085983276,44.8807983398
CYFB,America/Iqaluit,110.0,,-68.555801,63.756402
OPLA,Asia/Karachi,712.0,AS,74.403603,31.521601
VGHS,Asia/Dhaka,30.0,AS,90.397783,23.843347
WADD,Asia/Makassar,14.0,AS,115.167,-8.74817
EHWO,Europe/Amsterdam,63.0,EU,4.34203,51.4491
LTAP,Europe/Istanbul,1758.0,AS,35.521999,40.829399
LFOK,Europe/Paris,587.0,EU,4.20611,48.77333
LRSB,Europe/Bucharest,1496.0,EU,24.086666,45.785841
HSSK,Africa/Khartoum,1265.0,AF,32.5532,15.5895
UTSB,Asia/Samarkand,751.0,AS,64.483299,39.775002
EDLW,Europe/Berlin,425.0,EU,7.61224,51.518299
LICB,Europe/Rome,756.0,EU,14.60889,36.99583
EGGP,Europe/London,80.0,EU,-2.84972,53.333599
VVTS,Asia/Ho_Chi_Minh,33.0,AS,106.652,10.8188
DBBB,Africa/Porto-Novo,19.0,AF,2.384350061416626,6.357230186462402
LEZG,Europe/Madrid,863.0,EU,-1.04155,41.666199
EBKT,Europe/Brussels,55.0,EU,3.209551,50.818878
TNCA,America/Aruba,60.0,,-70.015198,12.5014
LFCR,Europe/Paris,1910.0,EU,2.48267,44.407902
UTAK,Asia/Ashgabat,279.0,AS,53.007198,40.063301
GMFK,Africa/Casablanca,3428.0,AF,-4.39833021164,31.9475002289
WMKK,Asia/Kuala_Lumpur,69.0,AS,101.709999,2.74558
GMAD,Africa/Casablanca,250.0,AF,-9.412003,30.322478
EFOU,Europe/Helsinki,47.0,EU,25.354601,64.930099
EDFH,Europe/Berlin,1649.0,EU,7.26389,49.9487
EFTU,Europe/Helsinki,161.0,EU,22.2628,60.514099
GCXO,Atlantic/Canary,2076.0,AF,-16.341499,28.4827
LRBS,Europe/Bucharest,297.0,EU,26.1021,44.503201
SVMI,America/Caracas,234.0,SA,-66.991222,10.601194
UTNU,Asia/Samarkand,320.0,AS,60.641700744628906,41.58430099487305
VOGO,Asia/Kolkata,150.0,AS,73.831398,15.3808
OMDW,Asia/Dubai,114.0,AS,55.161389,24.896356
CYYT,America/St_Johns,461.0,,-52.7519,47.618599
EFIV,Europe/Helsinki,481.0,EU,27.405300140381,68.607299804688
EFRO,Europe/Helsinki,642.0,EU,25.830400466919,66.564796447754
LDRI,Europe/Zagreb,278.0,EU,14.5703,45.2169
HAAB,Africa/Addis_Ababa,7630.0,AF,38.799301,8.97789
OPKC,Asia/Karachi,100.0,AS,67.160797,24.9065
VTSG,Asia/Bangkok,82.0,AS,98.9861984253,8.09912014008
EGJJ,Europe/Jersey,277.0,EU,-2.195509910583496,49.20790100097656
LCRA,Asia/Nicosia,76.0,AS,32.9879,34.590401
EGHL,Europe/London,618.0,EU,-1.0335,51.187199
KTUL,America/Chicago,677.0,,-95.88809967041016,36.19839859008789
GOBD,Africa/Dakar,290.0,AF,-17.073333,14.67
LFTM,Europe/Paris,2345.0,EU,5.72833,44.458302
LTBZ,Europe/Istanbul,3327.0,AS,30.128111,39.113079
HTZA,Africa/Dar_es_Salaam,54.0,AF,39.224899,-6.22202
LFLX,Europe/Paris,529.0,EU,1.721111,46.860278
GMTN,Africa/Casablanca,10.0,AF,-5.32002,35.594299
LFRH,Europe/Paris,160.0,EU,-3.44,47.760601
LTFC,Europe/Istanbul,2835.0,AS,30.368401,37.8554
EPMO,Europe/Warsaw,341.0,EU,20.6518,52.451099
EKRN,Europe/Copenhagen,52.0,EU,14.7596,55.063301
FNLU,Africa/Luanda,243.0,AF,13.2312,-8.85837
VTBS,Asia/Bangkok,5.0,AS,100.74700164794922,13.681099891662598
LGBL,Europe/Athens,83.0,EU,22.7943,39.219601
DGAA,Africa/Accra,205.0,AF,-0.1667860001325607,5.605189800262451
HRYR,Africa/Kigali,4859.0,AF,30.1395,-1.96863
KOMA,America/Chicago,984.0,,-95.894096,41.3032
RJAA,Asia/Tokyo,141.0,AS,140.386002,35.764702
EGPE,Europe/London,31.0,EU,-4.047500133514404,57.54249954223633
EPKT,Europe/Warsaw,995.0,EU,19.080705,50.476015
LEPP,Europe/Madrid,1504.0,EU,-1.64633,42.77
SBGR,America/Sao_Paulo,2461.0,SA,-46.467778,-23.431944
RJTT,Asia/Tokyo,35.0,AS,139.779999,35.552299
ESKN,Europe/Stockholm,140.0,EU,16.912201,58.788601
LKTB,Europe/Prague,778.0,EU,16.694400787353516,49.15129852294922
MMPR,America/Mexico_City,23.0,,-105.254391,20.679913
LTCM,Europe/Istanbul,20.0,AS,35.071774,42.018313
LKMT,Europe/Prague,844.0,EU,18.111099,49.696301
HHAS,Africa/Asmara,7661.0,AF,38.91070175170898,15.291899681091309
DAOO,Africa/Algiers,295.0,AF,-0.621183,35.623901
LEAB,Europe/Madrid,2302.0,EU,-1.86352,38.948502
EFET,Europe/Helsinki,1005.0,EU,23.424299240112,68.362602233887
LFBH,Europe/Paris,74.0,EU,-1.19528,46.179199
KRFD,America/Chicago,742.0,,-89.097198,42.1954
KDAB,America/New_York,34.0,,-81.058098,29.179899
LTBU,Europe/Istanbul,574.0,EU,27.919099807739254,41.13819885253906
HUEN,Africa/Kampala,3782.0,AF,32.443501,0.042386
EDJA,Europe/Berlin,2077.0,EU,10.2395000458,47.9888000488
VHHH,Asia/Hong_Kong,28.0,AS,113.915001,22.308901
